%time,field.header.seq,field.header.stamp,field.header.frame_id,field.head,field.timeUTC,field.latitude,field.northOrSouth,field.longitude,field.eastOrWest,field.GPSstatus,field.satelliteNum,field.HDOP,field.altitude,field.altitudeUnit,field.geiod,field.geiodUnit,field.rtkAge,field.rtkID
1638155833015941640,61,1638155833002998114,/GNSS,$GPGGA,11832.4,40.0596383333,N,116.183083333,E,1,13,1.0,247.5,M,-9.8,M,0,
1638155833215920609,62,1638155833202998877,/GNSS,$GPGGA,11832.6,40.0596383333,N,116.183065,E,1,13,1.0,247.46,M,-9.8,M,0,
1638155833415922614,63,1638155833402998447,/GNSS,$GPGGA,11832.8,40.0596383333,N,116.183045,E,1,13,1.0,247.51,M,-9.8,M,0,
1638155833615959844,64,1638155833603002787,/GNSS,$GPGGA,11833.0,40.0596383333,N,116.183026667,E,1,13,1.0,247.53,M,-9.8,M,0,
1638155833815922585,65,1638155833802995920,/GNSS,$GPGGA,11833.2,40.0596366667,N,116.183008333,E,1,13,1.0,247.54,M,-9.8,M,0,
1638155834015958089,66,1638155834003012896,/GNSS,$GPGGA,11833.4,40.0596366667,N,116.18299,E,1,13,1.0,247.52,M,-9.8,M,0,
1638155834215956117,67,1638155834203002453,/GNSS,$GPGGA,11833.6,40.059635,N,116.182971667,E,1,13,1.0,247.54,M,-9.8,M,0,
1638155834416008461,68,1638155834403022051,/GNSS,$GPGGA,11833.8,40.059635,N,116.182953333,E,1,13,1.0,247.53,M,-9.8,M,0,
1638155834616047161,69,1638155834603032827,/GNSS,$GPGGA,11834.0,40.059635,N,116.182935,E,1,13,1.0,247.52,M,-9.8,M,0,
1638155834815934718,70,1638155834802966833,/GNSS,$GPGGA,11834.2,40.059635,N,116.182916667,E,1,13,1.0,247.47,M,-9.8,M,0,
1638155835016002088,71,1638155835002996206,/GNSS,$GPGGA,11834.4,40.059635,N,116.182896667,E,1,13,1.0,247.43,M,-9.8,M,0,
1638155835215931033,72,1638155835202962399,/GNSS,$GPGGA,11834.6,40.059635,N,116.182878333,E,1,13,1.0,247.43,M,-9.8,M,0,
1638155835415939537,73,1638155835402970076,/GNSS,$GPGGA,11834.8,40.0596333333,N,116.18286,E,1,13,1.0,247.45,M,-9.8,M,0,
1638155835615929967,74,1638155835602963209,/GNSS,$GPGGA,11835.0,40.0596333333,N,116.182841667,E,1,13,1.0,247.46,M,-9.8,M,0,
1638155835815933357,75,1638155835803006172,/GNSS,$GPGGA,11835.2,40.0596333333,N,116.182821667,E,1,13,1.0,247.49,M,-9.8,M,0,
1638155836015941652,76,1638155836003007412,/GNSS,$GPGGA,11835.4,40.0596333333,N,116.182803333,E,1,13,1.0,247.56,M,-9.8,M,0,
1638155836215931413,77,1638155836203003168,/GNSS,$GPGGA,11835.6,40.0596333333,N,116.182785,E,1,13,1.0,247.55,M,-9.8,M,0,
1638155836415931715,78,1638155836402996540,/GNSS,$GPGGA,11835.8,40.0596333333,N,116.182765,E,1,13,1.0,247.52,M,-9.8,M,0,
1638155836615926211,79,1638155836603001356,/GNSS,$GPGGA,11836.0,40.0596333333,N,116.182746667,E,1,13,1.0,247.48,M,-9.8,M,0,
1638155836815938307,80,1638155836802994728,/GNSS,$GPGGA,11836.2,40.0596333333,N,116.182728333,E,1,13,1.0,247.47,M,-9.8,M,0,
1638155837015999095,81,1638155837002997398,/GNSS,$GPGGA,11836.4,40.0596316667,N,116.18271,E,1,13,1.0,247.45,M,-9.8,M,0,
1638155837215930161,82,1638155837203000784,/GNSS,$GPGGA,11836.6,40.0596316667,N,116.18269,E,1,13,1.0,247.45,M,-9.8,M,0,
1638155837415926471,83,1638155837402997494,/GNSS,$GPGGA,11836.8,40.0596316667,N,116.182671667,E,1,13,1.0,247.45,M,-9.8,M,0,
1638155837615934968,84,1638155837603006363,/GNSS,$GPGGA,11837.0,40.0596316667,N,116.182653333,E,1,13,1.0,247.5,M,-9.8,M,0,
1638155837815906715,85,1638155837802963257,/GNSS,$GPGGA,11837.2,40.05963,N,116.182633333,E,1,13,1.0,247.52,M,-9.8,M,0,
1638155838015928038,86,1638155838002990007,/GNSS,$GPGGA,11837.4,40.05963,N,116.182615,E,1,13,1.0,247.51,M,-9.8,M,0,
1638155838215999849,87,1638155838203006744,/GNSS,$GPGGA,11837.6,40.05963,N,116.182596667,E,1,13,1.0,247.56,M,-9.8,M,0,
1638155838415968253,88,1638155838403011799,/GNSS,$GPGGA,11837.8,40.0596283333,N,116.182578333,E,1,13,1.0,247.53,M,-9.8,M,0,
1638155838615932130,89,1638155838603002787,/GNSS,$GPGGA,11838.0,40.0596283333,N,116.18256,E,1,13,1.0,247.59,M,-9.8,M,0,
1638155838815948392,90,1638155838802997112,/GNSS,$GPGGA,11838.2,40.0596283333,N,116.18254,E,1,13,1.0,247.6,M,-9.8,M,0,
1638155839015946866,91,1638155839002999067,/GNSS,$GPGGA,11838.4,40.0596283333,N,116.182521667,E,1,13,1.0,247.58,M,-9.8,M,0,
1638155839216011421,92,1638155839203018904,/GNSS,$GPGGA,11838.6,40.0596266667,N,116.182501667,E,1,13,1.0,247.58,M,-9.8,M,0,
1638155839415936591,93,1638155839402999401,/GNSS,$GPGGA,11838.8,40.0596266667,N,116.182483333,E,1,13,1.0,247.6,M,-9.8,M,0,
1638155839615925653,94,1638155839602993250,/GNSS,$GPGGA,11839.0,40.0596266667,N,116.182465,E,1,13,1.0,247.57,M,-9.8,M,0,
1638155839815974147,95,1638155839803001404,/GNSS,$GPGGA,11839.2,40.0596266667,N,116.182445,E,1,13,1.0,247.55,M,-9.8,M,0,
1638155840015985253,96,1638155840003016233,/GNSS,$GPGGA,11839.4,40.059625,N,116.182426667,E,1,13,1.0,247.54,M,-9.8,M,0,
1638155840215978181,97,1638155840202992201,/GNSS,$GPGGA,11839.6,40.059625,N,116.182408333,E,1,13,1.0,247.56,M,-9.8,M,0,
1638155840415963039,98,1638155840403013229,/GNSS,$GPGGA,11839.8,40.059625,N,116.182388333,E,1,13,1.0,247.58,M,-9.8,M,0,
1638155840615944693,99,1638155840602998495,/GNSS,$GPGGA,11840.0,40.059625,N,116.18237,E,1,13,1.0,247.6,M,-9.8,M,0,
1638155840815942329,100,1638155840803007841,/GNSS,$GPGGA,11840.2,40.0596233333,N,116.182351667,E,1,13,1.0,247.56,M,-9.8,M,0,
1638155841015940731,101,1638155841003003359,/GNSS,$GPGGA,11840.4,40.0596233333,N,116.182331667,E,1,13,1.0,247.55,M,-9.8,M,0,
1638155841215926339,102,1638155841202996016,/GNSS,$GPGGA,11840.6,40.0596233333,N,116.182313333,E,1,13,1.0,247.6,M,-9.8,M,0,
1638155841415942429,103,1638155841403005123,/GNSS,$GPGGA,11840.8,40.0596233333,N,116.182295,E,1,13,1.0,247.61,M,-9.8,M,0,
1638155841615925397,104,1638155841602996111,/GNSS,$GPGGA,11841.0,40.0596233333,N,116.182275,E,1,13,1.0,247.58,M,-9.8,M,0,
1638155841815941375,105,1638155841803011179,/GNSS,$GPGGA,11841.2,40.0596233333,N,116.182256667,E,1,13,1.0,247.61,M,-9.8,M,0,
1638155842015942147,106,1638155842003007174,/GNSS,$GPGGA,11841.4,40.0596233333,N,116.182238333,E,1,13,1.0,247.54,M,-9.8,M,0,
1638155842215932501,107,1638155842203006029,/GNSS,$GPGGA,11841.6,40.0596233333,N,116.18222,E,1,13,1.0,247.56,M,-9.8,M,0,
1638155842415939076,108,1638155842403001308,/GNSS,$GPGGA,11841.8,40.0596233333,N,116.1822,E,1,13,1.0,247.56,M,-9.8,M,0,
1638155842615935434,109,1638155842603002310,/GNSS,$GPGGA,11842.0,40.0596233333,N,116.182181667,E,1,13,1.0,247.53,M,-9.8,M,0,
1638155842815958976,110,1638155842802996397,/GNSS,$GPGGA,11842.2,40.0596216667,N,116.182163333,E,1,13,1.0,247.52,M,-9.8,M,0,
1638155843015938049,111,1638155843003000975,/GNSS,$GPGGA,11842.4,40.0596216667,N,116.182145,E,1,13,1.0,247.52,M,-9.8,M,0,
1638155843215915228,112,1638155843202974558,/GNSS,$GPGGA,11842.6,40.0596216667,N,116.182125,E,1,13,1.0,247.5,M,-9.8,M,0,
1638155843415929282,113,1638155843402997971,/GNSS,$GPGGA,11842.8,40.0596216667,N,116.182106667,E,1,13,1.0,247.5,M,-9.8,M,0,
1638155843615939685,114,1638155843602996826,/GNSS,$GPGGA,11843.0,40.0596216667,N,116.182088333,E,1,13,1.0,247.48,M,-9.8,M,0,
1638155843815962196,115,1638155843802999735,/GNSS,$GPGGA,11843.2,40.0596216667,N,116.18207,E,1,13,1.0,247.46,M,-9.8,M,0,
1638155844015980309,116,1638155844002987862,/GNSS,$GPGGA,11843.4,40.0596216667,N,116.18205,E,1,13,1.0,247.47,M,-9.8,M,0,
1638155844216014348,117,1638155844203015327,/GNSS,$GPGGA,11843.6,40.0596216667,N,116.182031667,E,1,13,1.0,247.46,M,-9.8,M,0,
1638155844415945129,118,1638155844403009415,/GNSS,$GPGGA,11843.8,40.0596216667,N,116.182011667,E,1,13,1.0,247.47,M,-9.8,M,0,
1638155844615906806,119,1638155844602960110,/GNSS,$GPGGA,11844.0,40.0596216667,N,116.181993333,E,1,13,1.0,247.43,M,-9.8,M,0,
1638155844815935135,120,1638155844803040743,/GNSS,$GPGGA,11844.2,40.0596216667,N,116.181975,E,1,13,1.0,247.39,M,-9.8,M,0,
1638155845015927309,121,1638155845003040552,/GNSS,$GPGGA,11844.4,40.0596216667,N,116.181956667,E,1,13,1.0,247.36,M,-9.8,M,0,
1638155845215932300,122,1638155845203046560,/GNSS,$GPGGA,11844.6,40.0596216667,N,116.181938333,E,1,13,1.0,247.3,M,-9.8,M,0,
1638155845415939613,123,1638155845403048992,/GNSS,$GPGGA,11844.8,40.05962,N,116.18192,E,1,13,1.0,247.3,M,-9.8,M,0,
1638155845615960770,124,1638155845603045702,/GNSS,$GPGGA,11845.0,40.05962,N,116.1819,E,1,13,1.0,247.29,M,-9.8,M,0,
1638155845815928682,125,1638155845802993536,/GNSS,$GPGGA,11845.2,40.05962,N,116.181881667,E,1,13,1.0,247.28,M,-9.8,M,0,
1638155846015936535,126,1638155846002996206,/GNSS,$GPGGA,11845.4,40.0596216667,N,116.181863333,E,1,13,1.0,247.28,M,-9.8,M,0,
1638155846215892943,127,1638155846202952147,/GNSS,$GPGGA,11845.6,40.05962,N,116.181843333,E,1,13,1.0,247.27,M,-9.8,M,0,
1638155846415938247,128,1638155846403005362,/GNSS,$GPGGA,11845.8,40.05962,N,116.181825,E,1,13,1.0,247.25,M,-9.8,M,0,
1638155846615913313,129,1638155846602967262,/GNSS,$GPGGA,11846.0,40.05962,N,116.181806667,E,1,13,1.0,247.24,M,-9.8,M,0,
1638155846815939219,130,1638155846803032637,/GNSS,$GPGGA,11846.2,40.05962,N,116.181788333,E,1,13,1.0,247.28,M,-9.8,M,0,
1638155847015922691,131,1638155847003015995,/GNSS,$GPGGA,11846.4,40.05962,N,116.181768333,E,1,13,1.0,247.3,M,-9.8,M,0,
1638155847215946067,132,1638155847203032017,/GNSS,$GPGGA,11846.6,40.05962,N,116.18175,E,1,13,1.0,247.35,M,-9.8,M,0,
1638155847415937682,133,1638155847403034449,/GNSS,$GPGGA,11846.8,40.0596183333,N,116.181731667,E,1,13,1.0,247.39,M,-9.8,M,0,
1638155847615925904,134,1638155847603025913,/GNSS,$GPGGA,11847.0,40.0596183333,N,116.181713333,E,1,13,1.0,247.41,M,-9.8,M,0,
1638155847815960375,135,1638155847803008318,/GNSS,$GPGGA,11847.2,40.0596183333,N,116.181693333,E,1,13,1.0,247.43,M,-9.8,M,0,
1638155848015941181,136,1638155848003010035,/GNSS,$GPGGA,11847.4,40.0596183333,N,116.181675,E,1,13,1.0,247.43,M,-9.8,M,0,
1638155848215931685,137,1638155848203001738,/GNSS,$GPGGA,11847.6,40.0596166667,N,116.181656667,E,1,13,1.0,247.41,M,-9.8,M,0,
1638155848416008629,138,1638155848403046608,/GNSS,$GPGGA,11847.8,40.0596166667,N,116.181638333,E,1,13,1.0,247.47,M,-9.8,M,0,
1638155848615918164,139,1638155848602995872,/GNSS,$GPGGA,11848.0,40.0596166667,N,116.181618333,E,1,13,1.0,247.49,M,-9.8,M,0,
1638155848815944118,140,1638155848802987576,/GNSS,$GPGGA,11848.2,40.0596166667,N,116.1816,E,1,13,1.0,247.52,M,-9.8,M,0,
1638155849016010495,141,1638155849003030539,/GNSS,$GPGGA,11848.4,40.0596166667,N,116.181581667,E,1,13,1.0,247.52,M,-9.8,M,0,
1638155849215926784,142,1638155849203005075,/GNSS,$GPGGA,11848.6,40.0596166667,N,116.181563333,E,1,13,1.0,247.53,M,-9.8,M,0,
1638155849415930262,143,1638155849403008223,/GNSS,$GPGGA,11848.8,40.059615,N,116.181543333,E,1,13,1.0,247.53,M,-9.8,M,0,
1638155849615938572,144,1638155849603008270,/GNSS,$GPGGA,11849.0,40.059615,N,116.181525,E,1,13,1.0,247.55,M,-9.8,M,0,
1638155849815936072,145,1638155849803000212,/GNSS,$GPGGA,11849.2,40.059615,N,116.181506667,E,1,13,1.0,247.55,M,-9.8,M,0,
1638155850015948271,146,1638155850003007889,/GNSS,$GPGGA,11849.4,40.059615,N,116.181488333,E,1,13,1.0,247.55,M,-9.8,M,0,
1638155850215928765,147,1638155850202995300,/GNSS,$GPGGA,11849.6,40.059615,N,116.181468333,E,1,13,1.0,247.54,M,-9.8,M,0,
1638155850415931608,148,1638155850402998686,/GNSS,$GPGGA,11849.8,40.0596133333,N,116.181451667,E,1,13,1.0,247.48,M,-9.8,M,0,
1638155850615919725,149,1638155850602994204,/GNSS,$GPGGA,11850.0,40.0596133333,N,116.181431667,E,1,13,1.0,247.46,M,-9.8,M,0,
1638155850815937230,150,1638155850803002834,/GNSS,$GPGGA,11850.2,40.0596133333,N,116.181413333,E,1,13,1.0,247.48,M,-9.8,M,0,
1638155851015927660,151,1638155851003004551,/GNSS,$GPGGA,11850.4,40.0596133333,N,116.181395,E,1,13,1.0,247.47,M,-9.8,M,0,
1638155851215933325,152,1638155851203002691,/GNSS,$GPGGA,11850.6,40.0596133333,N,116.181376667,E,1,13,1.0,247.49,M,-9.8,M,0,
1638155851415959568,153,1638155851403006554,/GNSS,$GPGGA,11850.8,40.0596133333,N,116.181356667,E,1,13,1.0,247.51,M,-9.8,M,0,
1638155851616024880,154,1638155851603013039,/GNSS,$GPGGA,11851.0,40.0596116667,N,116.181338333,E,1,13,1.0,247.46,M,-9.8,M,0,
1638155851815949972,155,1638155851802994013,/GNSS,$GPGGA,11851.2,40.0596116667,N,116.18132,E,1,13,1.0,247.4,M,-9.8,M,0,
1638155852015940960,156,1638155852002996922,/GNSS,$GPGGA,11851.4,40.0596116667,N,116.181301667,E,1,13,1.0,247.42,M,-9.8,M,0,
1638155852215923000,157,1638155852202988863,/GNSS,$GPGGA,11851.6,40.0596116667,N,116.181283333,E,1,13,1.0,247.46,M,-9.8,M,0,
1638155852415927202,158,1638155852402991772,/GNSS,$GPGGA,11851.8,40.0596116667,N,116.181265,E,1,13,1.0,247.46,M,-9.8,M,0,
1638155852615936876,159,1638155852602993727,/GNSS,$GPGGA,11852.0,40.0596116667,N,116.181245,E,1,13,1.0,247.46,M,-9.8,M,0,
1638155852815943286,160,1638155852803002596,/GNSS,$GPGGA,11852.2,40.05961,N,116.181226667,E,1,13,1.0,247.47,M,-9.8,M,0,
1638155853015927690,161,1638155853002996206,/GNSS,$GPGGA,11852.4,40.05961,N,116.181208333,E,1,13,1.0,247.51,M,-9.8,M,0,
1638155853215933072,162,1638155853202997923,/GNSS,$GPGGA,11852.6,40.05961,N,116.18119,E,1,13,1.0,247.58,M,-9.8,M,0,
1638155853415933819,163,1638155853402996302,/GNSS,$GPGGA,11852.8,40.05961,N,116.181171667,E,1,13,1.0,247.55,M,-9.8,M,0,
1638155853615906270,164,1638155853602978945,/GNSS,$GPGGA,11853.0,40.05961,N,116.181151667,E,1,13,1.0,247.56,M,-9.8,M,0,
1638155853815946318,165,1638155853803021669,/GNSS,$GPGGA,11853.2,40.0596083333,N,116.181133333,E,1,13,1.0,247.57,M,-9.8,M,0,
1638155854015933832,166,1638155854003020287,/GNSS,$GPGGA,11853.4,40.0596083333,N,116.181115,E,1,13,1.0,247.56,M,-9.8,M,0,
1638155854215962674,167,1638155854203037739,/GNSS,$GPGGA,11853.6,40.0596083333,N,116.181096667,E,1,13,1.0,247.57,M,-9.8,M,0,
1638155854415949973,168,1638155854403029203,/GNSS,$GPGGA,11853.8,40.0596083333,N,116.181078333,E,1,13,1.0,247.61,M,-9.8,M,0,
1638155854615920598,169,1638155854603013754,/GNSS,$GPGGA,11854.0,40.0596083333,N,116.181058333,E,1,13,1.0,247.63,M,-9.8,M,0,
1638155854815932512,170,1638155854803007364,/GNSS,$GPGGA,11854.2,40.0596083333,N,116.18104,E,1,13,1.0,247.66,M,-9.8,M,0,
1638155855015880628,171,1638155855002959967,/GNSS,$GPGGA,11854.4,40.0596083333,N,116.181021667,E,1,14,1.0,247.64,M,-9.8,M,0,
1638155855215939790,172,1638155855203008175,/GNSS,$GPGGA,11854.6,40.0596083333,N,116.181001667,E,1,14,1.0,247.63,M,-9.8,M,0,
1638155855416453858,173,1638155855403480291,/GNSS,$GPGGA,11854.8,40.0596066667,N,116.180983333,E,1,14,1.0,247.63,M,-9.8,M,0,
1638155855615967568,174,1638155855603027821,/GNSS,$GPGGA,11855.0,40.0596066667,N,116.180965,E,1,14,1.0,247.65,M,-9.8,M,0,
1638155855815945290,175,1638155855802982569,/GNSS,$GPGGA,11855.2,40.0596066667,N,116.180946667,E,1,14,1.0,247.64,M,-9.8,M,0,
1638155856015940230,176,1638155856002980709,/GNSS,$GPGGA,11855.4,40.0596066667,N,116.180926667,E,1,14,1.0,247.64,M,-9.8,M,0,
1638155856215926819,177,1638155856202939034,/GNSS,$GPGGA,11855.6,40.059605,N,116.180908333,E,1,14,1.0,247.63,M,-9.8,M,0,
1638155856415917903,178,1638155856402973413,/GNSS,$GPGGA,11855.8,40.059605,N,116.18089,E,1,14,1.0,247.62,M,-9.8,M,0,
1638155856615929645,179,1638155856602974892,/GNSS,$GPGGA,11856.0,40.059605,N,116.180871667,E,1,14,1.0,247.66,M,-9.8,M,0,
1638155856815934981,180,1638155856803004980,/GNSS,$GPGGA,11856.2,40.0596016667,N,116.180853333,E,1,14,1.0,247.74,M,-9.8,M,0,
1638155857015942036,181,1638155857003014088,/GNSS,$GPGGA,11856.4,40.0596033333,N,116.180835,E,1,14,1.0,247.67,M,-9.8,M,0,
1638155857215937377,182,1638155857203003883,/GNSS,$GPGGA,11856.6,40.0596033333,N,116.180816667,E,1,14,1.0,247.62,M,-9.8,M,0,
1638155857415935553,183,1638155857403004169,/GNSS,$GPGGA,11856.8,40.059605,N,116.180798333,E,1,14,1.0,247.51,M,-9.8,M,0,
1638155857615931511,184,1638155857603007317,/GNSS,$GPGGA,11857.0,40.059605,N,116.180781667,E,1,14,1.0,247.51,M,-9.8,M,0,
1638155857815945596,185,1638155857802969217,/GNSS,$GPGGA,11857.2,40.0596033333,N,116.180765,E,1,14,1.0,247.58,M,-9.8,M,0,
1638155858015930474,186,1638155858002996683,/GNSS,$GPGGA,11857.4,40.0596033333,N,116.180746667,E,1,14,1.0,247.56,M,-9.8,M,0,
1638155858215931431,187,1638155858202997446,/GNSS,$GPGGA,11857.6,40.0596033333,N,116.180731667,E,1,14,1.0,247.56,M,-9.8,M,0,
1638155858415932105,188,1638155858402997732,/GNSS,$GPGGA,11857.8,40.0596033333,N,116.180715,E,1,13,1.0,247.51,M,-9.8,M,0,
1638155858615928600,189,1638155858602993011,/GNSS,$GPGGA,11858.0,40.0596016667,N,116.180698333,E,1,14,1.0,247.56,M,-9.8,M,0,
1638155858815926980,190,1638155858802999735,/GNSS,$GPGGA,11858.2,40.0595983333,N,116.180683333,E,1,14,1.0,247.65,M,-9.8,M,0,
1638155859015889450,191,1638155859002954960,/GNSS,$GPGGA,11858.4,40.0596,N,116.180668333,E,1,14,1.0,247.55,M,-9.8,M,0,
1638155859215942588,192,1638155859203002453,/GNSS,$GPGGA,11858.6,40.0596,N,116.180653333,E,1,14,1.0,247.48,M,-9.8,M,0,
1638155859415936686,193,1638155859402999640,/GNSS,$GPGGA,11858.8,40.0595983333,N,116.18064,E,1,14,1.0,247.49,M,-9.8,M,0,
1638155859615931332,194,1638155859603002787,/GNSS,$GPGGA,11859.0,40.0595983333,N,116.180626667,E,1,14,1.0,247.49,M,-9.8,M,0,
1638155859815940491,195,1638155859803003073,/GNSS,$GPGGA,11859.2,40.0595983333,N,116.180613333,E,1,14,1.0,247.44,M,-9.8,M,0,
1638155860015932029,196,1638155860003001451,/GNSS,$GPGGA,11859.4,40.0595983333,N,116.1806,E,1,14,1.0,247.48,M,-9.8,M,0,
1638155860215938414,197,1638155860202998161,/GNSS,$GPGGA,11859.6,40.0595966667,N,116.180588333,E,1,14,1.0,247.58,M,-9.8,M,0,
1638155860415973388,198,1638155860403006077,/GNSS,$GPGGA,11859.8,40.0596,N,116.180575,E,1,13,1.0,247.46,M,-9.8,M,0,
1638155860616092740,199,1638155860603065014,/GNSS,$GPGGA,11860.0,40.0595966667,N,116.180565,E,1,14,1.0,247.59,M,-9.8,M,0,
1638155860815936992,200,1638155860802935600,/GNSS,$GPGGA,11860.2,40.059595,N,116.180553333,E,1,14,1.0,247.62,M,-9.8,M,0,
1638155861015938040,201,1638155861002935410,/GNSS,$GPGGA,11860.4,40.0595966667,N,116.180543333,E,1,14,1.0,247.58,M,-9.8,M,0,
1638155861216009206,202,1638155861202940464,/GNSS,$GPGGA,11860.6,40.0595983333,N,116.180533333,E,1,13,1.0,247.47,M,-9.8,M,0,
1638155861415974382,203,1638155861402947187,/GNSS,$GPGGA,11860.8,40.0595966667,N,116.180523333,E,1,14,1.0,247.58,M,-9.8,M,0,
1638155861616092006,204,1638155861602979898,/GNSS,$GPGGA,11861.0,40.0595966667,N,116.180515,E,1,14,1.0,247.58,M,-9.8,M,0,
1638155861815935435,205,1638155861802953720,/GNSS,$GPGGA,11861.2,40.0595966667,N,116.180506667,E,1,14,1.0,247.55,M,-9.8,M,0,
1638155862015930645,206,1638155862002951145,/GNSS,$GPGGA,11861.4,40.0595966667,N,116.180498333,E,1,14,1.0,247.55,M,-9.8,M,0,
1638155862215945502,207,1638155862202964783,/GNSS,$GPGGA,11861.6,40.0595966667,N,116.18049,E,1,14,1.0,247.56,M,-9.8,M,0,
1638155862415940151,208,1638155862402961969,/GNSS,$GPGGA,11861.8,40.0595966667,N,116.180483333,E,1,14,1.0,247.58,M,-9.8,M,0,
1638155862616007521,209,1638155862602998734,/GNSS,$GPGGA,11862.0,40.0595966667,N,116.180476667,E,1,14,1.0,247.51,M,-9.8,M,0,
1638155862816042670,210,1638155862802996159,/GNSS,$GPGGA,11862.2,40.0595966667,N,116.18047,E,1,14,1.0,247.57,M,-9.8,M,0,
1638155863015961832,211,1638155863002971172,/GNSS,$GPGGA,11862.4,40.0595966667,N,116.180465,E,1,13,1.0,247.57,M,-9.8,M,0,
1638155863216213321,212,1638155863203031301,/GNSS,$GPGGA,11862.6,40.0595966667,N,116.180458333,E,1,13,1.0,247.55,M,-9.8,M,0,
1638155863416567862,213,1638155863403012037,/GNSS,$GPGGA,11862.8,40.0595966667,N,116.180453333,E,1,13,1.0,247.57,M,-9.8,M,0,
1638155863615979247,214,1638155863602960587,/GNSS,$GPGGA,11863.0,40.0595966667,N,116.180448333,E,1,13,1.0,247.54,M,-9.8,M,0,
1638155863815937906,215,1638155863802995682,/GNSS,$GPGGA,11863.2,40.0595966667,N,116.180443333,E,1,13,1.0,247.55,M,-9.8,M,0,
1638155864015944626,216,1638155864002998352,/GNSS,$GPGGA,11863.4,40.0595966667,N,116.180438333,E,1,13,1.0,247.56,M,-9.8,M,0,
1638155864215956300,217,1638155864203007221,/GNSS,$GPGGA,11863.6,40.0595966667,N,116.180433333,E,1,13,1.0,247.62,M,-9.8,M,0,
1638155864415967170,218,1638155864403008223,/GNSS,$GPGGA,11863.8,40.0595966667,N,116.180428333,E,1,13,1.0,247.63,M,-9.8,M,0,
1638155864616012974,219,1638155864603004694,/GNSS,$GPGGA,11864.0,40.0595966667,N,116.180423333,E,1,13,1.0,247.63,M,-9.8,M,0,
1638155864816003422,220,1638155864803021908,/GNSS,$GPGGA,11864.2,40.0595966667,N,116.180418333,E,1,13,1.0,247.68,M,-9.8,M,0,
1638155865015942697,221,1638155865002998829,/GNSS,$GPGGA,11864.4,40.0595966667,N,116.180413333,E,1,13,1.0,247.7,M,-9.8,M,0,
1638155865215965285,222,1638155865203009605,/GNSS,$GPGGA,11864.6,40.0595966667,N,116.18041,E,1,13,1.0,247.73,M,-9.8,M,0,
1638155865415930265,223,1638155865402988672,/GNSS,$GPGGA,11864.8,40.0595966667,N,116.180405,E,1,13,1.0,247.75,M,-9.8,M,0,
1638155865616062269,224,1638155865603023529,/GNSS,$GPGGA,11865.0,40.0595966667,N,116.1804,E,1,13,1.0,247.76,M,-9.8,M,0,
1638155865815949106,225,1638155865802974939,/GNSS,$GPGGA,11865.2,40.0595966667,N,116.180396667,E,1,13,1.0,247.82,M,-9.8,M,0,
1638155866016055824,226,1638155866002995968,/GNSS,$GPGGA,11865.4,40.0595966667,N,116.180393333,E,1,13,1.0,247.92,M,-9.8,M,0,
1638155866216025571,227,1638155866202990532,/GNSS,$GPGGA,11865.6,40.0595966667,N,116.180391667,E,1,13,1.0,247.91,M,-9.8,M,0,
1638155866415971365,228,1638155866402967930,/GNSS,$GPGGA,11865.8,40.0595966667,N,116.18039,E,1,13,1.0,247.87,M,-9.8,M,0,
1638155866615990173,229,1638155866602992296,/GNSS,$GPGGA,11866.0,40.0595966667,N,116.180388333,E,1,13,1.0,247.84,M,-9.8,M,0,
1638155866815933145,230,1638155866802975416,/GNSS,$GPGGA,11866.2,40.0595966667,N,116.180386667,E,1,13,1.0,247.73,M,-9.8,M,0,
1638155867015967020,231,1638155867002978086,/GNSS,$GPGGA,11866.4,40.0595966667,N,116.180386667,E,1,13,1.0,247.69,M,-9.8,M,0,
1638155867215985455,232,1638155867202985764,/GNSS,$GPGGA,11866.6,40.0595966667,N,116.180385,E,1,13,1.0,247.7,M,-9.8,M,0,
1638155867416009372,233,1638155867403003216,/GNSS,$GPGGA,11866.8,40.0595966667,N,116.180385,E,1,13,1.0,247.7,M,-9.8,M,0,
1638155867616001072,234,1638155867602993488,/GNSS,$GPGGA,11867.0,40.0595966667,N,116.180385,E,1,13,1.0,247.71,M,-9.8,M,0,
1638155867815911191,235,1638155867802954912,/GNSS,$GPGGA,11867.2,40.0595966667,N,116.180385,E,1,13,1.0,247.69,M,-9.8,M,0,
1638155868015951163,236,1638155868002989292,/GNSS,$GPGGA,11867.4,40.0595983333,N,116.180385,E,1,13,1.0,247.68,M,-9.8,M,0,
1638155868215965449,237,1638155868202992201,/GNSS,$GPGGA,11867.6,40.0595983333,N,116.180385,E,1,13,1.0,247.67,M,-9.8,M,0,
1638155868415999708,238,1638155868403000593,/GNSS,$GPGGA,11867.8,40.0595983333,N,116.180385,E,1,13,1.0,247.64,M,-9.8,M,0,
1638155868615947512,239,1638155868602991581,/GNSS,$GPGGA,11868.0,40.0595983333,N,116.180385,E,1,13,1.0,247.61,M,-9.8,M,0,
1638155868816084903,240,1638155868803020716,/GNSS,$GPGGA,11868.2,40.0595983333,N,116.180386667,E,1,13,1.0,247.66,M,-9.8,M,0,
1638155869015937926,241,1638155869002991438,/GNSS,$GPGGA,11868.4,40.0595983333,N,116.180386667,E,1,13,1.0,247.68,M,-9.8,M,0,
1638155869216027876,242,1638155869203009844,/GNSS,$GPGGA,11868.6,40.0595983333,N,116.180386667,E,1,13,1.0,247.65,M,-9.8,M,0,
1638155869416089147,243,1638155869403029919,/GNSS,$GPGGA,11868.8,40.0595983333,N,116.180388333,E,1,13,1.0,247.66,M,-9.8,M,0,
1638155869615976921,244,1638155869603018045,/GNSS,$GPGGA,11869.0,40.0595983333,N,116.180388333,E,1,13,1.0,247.64,M,-9.8,M,0,
1638155869816251389,245,1638155869803027153,/GNSS,$GPGGA,11869.2,40.0595983333,N,116.180388333,E,1,13,1.0,247.64,M,-9.8,M,0,
1638155870015941608,246,1638155870002975464,/GNSS,$GPGGA,11869.4,40.0595983333,N,116.18039,E,1,13,1.0,247.64,M,-9.8,M,0,
1638155870216154680,247,1638155870203010082,/GNSS,$GPGGA,11869.6,40.0595983333,N,116.18039,E,1,13,1.0,247.64,M,-9.8,M,0,
1638155870415939677,248,1638155870402973890,/GNSS,$GPGGA,11869.8,40.0595983333,N,116.18039,E,1,13,1.0,247.63,M,-9.8,M,0,
1638155870615981319,249,1638155870603001833,/GNSS,$GPGGA,11870.0,40.0595983333,N,116.180391667,E,1,13,1.0,247.63,M,-9.8,M,0,
1638155870815972541,250,1638155870802980423,/GNSS,$GPGGA,11870.2,40.0595983333,N,116.180391667,E,1,13,1.0,247.62,M,-9.8,M,0,
1638155871015964634,251,1638155871002985239,/GNSS,$GPGGA,11870.4,40.0595983333,N,116.180393333,E,1,13,1.0,247.64,M,-9.8,M,0,
1638155871215959591,252,1638155871202983618,/GNSS,$GPGGA,11870.6,40.0595983333,N,116.180393333,E,1,13,1.0,247.67,M,-9.8,M,0,
1638155871415931919,253,1638155871402968645,/GNSS,$GPGGA,11870.8,40.0595966667,N,116.180395,E,1,13,1.0,247.68,M,-9.8,M,0,
1638155871615935665,254,1638155871602969170,/GNSS,$GPGGA,11871.0,40.0595966667,N,116.180396667,E,1,13,1.0,247.7,M,-9.8,M,0,
1638155871815948669,255,1638155871803009272,/GNSS,$GPGGA,11871.2,40.0595966667,N,116.180396667,E,1,13,1.0,247.76,M,-9.8,M,0,
1638155872015940613,256,1638155872003004313,/GNSS,$GPGGA,11871.4,40.059595,N,116.1804,E,1,13,1.0,247.99,M,-9.8,M,0,
1638155872216214269,257,1638155872203210831,/GNSS,$GPGGA,11871.6,40.059595,N,116.1804,E,1,13,1.0,247.83,M,-9.8,M,0,
1638155872415944059,258,1638155872403008223,/GNSS,$GPGGA,11871.8,40.059595,N,116.1804,E,1,13,1.0,247.91,M,-9.8,M,0,
1638155872615938662,259,1638155872603000164,/GNSS,$GPGGA,11872.0,40.059595,N,116.180401667,E,1,13,1.0,247.88,M,-9.8,M,0,
1638155872816036921,260,1638155872803082943,/GNSS,$GPGGA,11872.2,40.059595,N,116.180401667,E,1,13,1.0,247.85,M,-9.8,M,0,
1638155873015997717,261,1638155873003005743,/GNSS,$GPGGA,11872.4,40.0595933333,N,116.180403333,E,1,13,1.0,247.83,M,-9.8,M,0,
1638155873216042723,262,1638155873203036547,/GNSS,$GPGGA,11872.6,40.0595933333,N,116.180403333,E,1,13,1.0,247.87,M,-9.8,M,0,
1638155873415973594,263,1638155873403023720,/GNSS,$GPGGA,11872.8,40.0595933333,N,116.180403333,E,1,13,1.0,247.89,M,-9.8,M,0,
1638155873615941765,264,1638155873603006363,/GNSS,$GPGGA,11873.0,40.0595933333,N,116.180403333,E,1,13,1.0,247.88,M,-9.8,M,0,
1638155873815956745,265,1638155873803001642,/GNSS,$GPGGA,11873.2,40.0595933333,N,116.180403333,E,1,13,1.0,247.85,M,-9.8,M,0,
1638155874016020419,266,1638155874002999306,/GNSS,$GPGGA,11873.4,40.0595916667,N,116.180403333,E,1,13,1.0,247.83,M,-9.8,M,0,
1638155874216059576,267,1638155874203023672,/GNSS,$GPGGA,11873.6,40.0595916667,N,116.180403333,E,1,13,1.0,247.8,M,-9.8,M,0,
1638155874415952510,268,1638155874403002262,/GNSS,$GPGGA,11873.8,40.0595916667,N,116.180403333,E,1,13,1.0,247.79,M,-9.8,M,0,
1638155874615938722,269,1638155874602997303,/GNSS,$GPGGA,11874.0,40.0595916667,N,116.180403333,E,1,13,1.0,247.82,M,-9.8,M,0,
1638155874816021752,270,1638155874803007603,/GNSS,$GPGGA,11874.2,40.0595916667,N,116.180403333,E,1,13,1.0,247.85,M,-9.8,M,0,
1638155875015951024,271,1638155875003012896,/GNSS,$GPGGA,11874.4,40.0595916667,N,116.180403333,E,1,13,1.0,247.86,M,-9.8,M,0,
1638155875216032703,272,1638155875203015327,/GNSS,$GPGGA,11874.6,40.0595916667,N,116.180403333,E,1,13,1.0,247.86,M,-9.8,M,0,
1638155875415947042,273,1638155875403001547,/GNSS,$GPGGA,11874.8,40.0595916667,N,116.180401667,E,1,13,1.0,247.87,M,-9.8,M,0,
1638155875616954647,274,1638155875603879213,/GNSS,$GPGGA,11875.0,40.0595916667,N,116.180401667,E,1,13,1.0,247.85,M,-9.8,M,0,
1638155875815950545,275,1638155875802125454,/GNSS,$GPGGA,11875.2,40.0595916667,N,116.180401667,E,1,13,1.0,247.82,M,-9.8,M,0,
1638155876016053262,276,1638155876002128124,/GNSS,$GPGGA,11875.4,40.0595916667,N,116.1804,E,1,13,1.0,247.87,M,-9.8,M,0,
1638155876216107748,277,1638155876202192783,/GNSS,$GPGGA,11875.6,40.0595916667,N,116.1804,E,1,13,1.0,247.84,M,-9.8,M,0,
1638155876415939782,278,1638155876402118921,/GNSS,$GPGGA,11875.8,40.0595933333,N,116.180398333,E,1,13,1.0,247.83,M,-9.8,M,0,
1638155876618182982,279,1638155876602178097,/GNSS,$GPGGA,11876.0,40.0595933333,N,116.180398333,E,1,13,1.0,247.83,M,-9.8,M,0,
1638155876815992878,280,1638155876802947521,/GNSS,$GPGGA,11876.2,40.0595933333,N,116.180396667,E,1,13,1.0,247.82,M,-9.8,M,0,
1638155877016623498,281,1638155877002971411,/GNSS,$GPGGA,11876.4,40.0595933333,N,116.180396667,E,1,13,1.0,247.83,M,-9.8,M,0,
1638155877215958062,282,1638155877202934265,/GNSS,$GPGGA,11876.6,40.0595933333,N,116.180395,E,1,13,1.0,247.85,M,-9.8,M,0,
1638155877415950948,283,1638155877402941465,/GNSS,$GPGGA,11876.8,40.0595933333,N,116.180395,E,1,13,1.0,247.81,M,-9.8,M,0,
1638155877615959431,284,1638155877602946758,/GNSS,$GPGGA,11877.0,40.0595933333,N,116.180393333,E,1,13,1.0,247.79,M,-9.8,M,0,
1638155877815966326,285,1638155877803000689,/GNSS,$GPGGA,11877.2,40.0595933333,N,116.180391667,E,1,13,1.0,247.77,M,-9.8,M,0,
1638155878015928316,286,1638155878002990723,/GNSS,$GPGGA,11877.4,40.0595933333,N,116.180388333,E,1,13,1.0,247.76,M,-9.8,M,0,
1638155878215984986,287,1638155878203001976,/GNSS,$GPGGA,11877.6,40.0595933333,N,116.180386667,E,1,13,1.0,247.76,M,-9.8,M,0,
1638155878416060693,288,1638155878402990341,/GNSS,$GPGGA,11877.8,40.0595933333,N,116.180383333,E,1,13,1.0,247.76,M,-9.8,M,0,
1638155878616154848,289,1638155878603071690,/GNSS,$GPGGA,11878.0,40.059595,N,116.18038,E,1,13,1.0,247.76,M,-9.8,M,0,
1638155878815953354,290,1638155878802929401,/GNSS,$GPGGA,11878.2,40.059595,N,116.180375,E,1,14,1.0,247.75,M,-9.8,M,0,
1638155879015911305,291,1638155879002883911,/GNSS,$GPGGA,11878.4,40.059595,N,116.180371667,E,1,14,1.0,247.72,M,-9.8,M,0,
1638155879215978131,292,1638155879202931881,/GNSS,$GPGGA,11878.6,40.059595,N,116.180366667,E,1,14,1.0,247.71,M,-9.8,M,0,
1638155879416082819,293,1638155879402960539,/GNSS,$GPGGA,11878.8,40.059595,N,116.180361667,E,1,14,1.0,247.69,M,-9.8,M,0,
1638155879615971805,294,1638155879602932692,/GNSS,$GPGGA,11879.0,40.059595,N,116.180356667,E,1,14,1.0,247.67,M,-9.8,M,0,
1638155879816056933,295,1638155879803011656,/GNSS,$GPGGA,11879.2,40.0595966667,N,116.18035,E,1,14,1.0,247.65,M,-9.8,M,0,
1638155880015988568,296,1638155880003001451,/GNSS,$GPGGA,11879.4,40.0595966667,N,116.180343333,E,1,13,1.0,247.64,M,-9.8,M,0,
1638155880215947386,297,1638155880202987671,/GNSS,$GPGGA,11879.6,40.0595966667,N,116.180336667,E,1,13,1.0,247.64,M,-9.8,M,0,
1638155880415955355,298,1638155880402994871,/GNSS,$GPGGA,11879.8,40.0595966667,N,116.18033,E,1,13,1.0,247.64,M,-9.8,M,0,
1638155880615991173,299,1638155880603006363,/GNSS,$GPGGA,11880.0,40.0595966667,N,116.180321667,E,1,13,1.0,247.63,M,-9.8,M,0,
1638155880815945282,300,1638155880802982092,/GNSS,$GPGGA,11880.2,40.0595966667,N,116.180313333,E,1,13,1.0,247.62,M,-9.8,M,0,
1638155881015931641,301,1638155881002980232,/GNSS,$GPGGA,11880.4,40.0595966667,N,116.180305,E,1,13,1.0,247.67,M,-9.8,M,0,
1638155881215936793,302,1638155881202981234,/GNSS,$GPGGA,11880.6,40.0595966667,N,116.180295,E,1,14,1.0,247.68,M,-9.8,M,0,
1638155881416394176,303,1638155881403046846,/GNSS,$GPGGA,11880.8,40.0595966667,N,116.180285,E,1,13,1.0,247.66,M,-9.8,M,0,
1638155881615937556,304,1638155881602981091,/GNSS,$GPGGA,11881.0,40.0595966667,N,116.180275,E,1,13,1.0,247.62,M,-9.8,M,0,
1638155881815950558,305,1638155881803000689,/GNSS,$GPGGA,11881.2,40.0595966667,N,116.180265,E,1,13,1.0,247.65,M,-9.8,M,0,
1638155882015934914,306,1638155882003000975,/GNSS,$GPGGA,11881.4,40.0595966667,N,116.180253333,E,1,13,1.0,247.67,M,-9.8,M,0,
1638155882215930152,307,1638155882202999115,/GNSS,$GPGGA,11881.6,40.0595966667,N,116.180241667,E,1,13,1.0,247.67,M,-9.8,M,0,
1638155882415949200,308,1638155882403005123,/GNSS,$GPGGA,11881.8,40.059595,N,116.18023,E,1,13,1.0,247.66,M,-9.8,M,0,
1638155882615912586,309,1638155882602973223,/GNSS,$GPGGA,11882.0,40.059595,N,116.180216667,E,1,13,1.0,247.63,M,-9.8,M,0,
1638155882815944657,310,1638155882803030252,/GNSS,$GPGGA,11882.2,40.059595,N,116.180203333,E,1,14,1.0,247.58,M,-9.8,M,0,
1638155883016103015,311,1638155883003104687,/GNSS,$GPGGA,11882.4,40.059595,N,116.18019,E,1,14,1.0,247.58,M,-9.8,M,0,
1638155883215956134,312,1638155883203036070,/GNSS,$GPGGA,11882.6,40.059595,N,116.180176667,E,1,14,1.0,247.59,M,-9.8,M,0,
1638155883415957183,313,1638155883403024673,/GNSS,$GPGGA,11882.8,40.0595933333,N,116.180161667,E,1,14,1.0,247.55,M,-9.8,M,0,
1638155883615933881,314,1638155883603025198,/GNSS,$GPGGA,11883.0,40.0595933333,N,116.180146667,E,1,14,1.0,247.55,M,-9.8,M,0,
1638155883815954265,315,1638155883803014278,/GNSS,$GPGGA,11883.2,40.0595933333,N,116.18013,E,1,14,1.0,247.57,M,-9.8,M,0,
1638155884016068194,316,1638155884003027439,/GNSS,$GPGGA,11883.4,40.0595916667,N,116.180115,E,1,13,1.0,247.55,M,-9.8,M,0,
1638155884215942310,317,1638155884203003645,/GNSS,$GPGGA,11883.6,40.0595916667,N,116.180098333,E,1,13,1.0,247.54,M,-9.8,M,0,
1638155884415950378,318,1638155884403004169,/GNSS,$GPGGA,11883.8,40.0595916667,N,116.180081667,E,1,13,1.0,247.53,M,-9.8,M,0,
1638155884615939766,319,1638155884603005886,/GNSS,$GPGGA,11884.0,40.0595916667,N,116.180063333,E,1,13,1.0,247.51,M,-9.8,M,0,
1638155884815998365,320,1638155884803030014,/GNSS,$GPGGA,11884.2,40.0595916667,N,116.180045,E,1,13,1.0,247.52,M,-9.8,M,0,
1638155885015935837,321,1638155885002995014,/GNSS,$GPGGA,11884.4,40.05959,N,116.180026667,E,1,13,1.0,247.54,M,-9.8,M,0,
1638155885215950887,322,1638155885202999115,/GNSS,$GPGGA,11884.6,40.05959,N,116.180008333,E,1,13,1.0,247.47,M,-9.8,M,0,
1638155885415987223,323,1638155885403017044,/GNSS,$GPGGA,11884.8,40.0595883333,N,116.17999,E,1,13,1.0,247.51,M,-9.8,M,0,
1638155885615985432,324,1638155885603013277,/GNSS,$GPGGA,11885.0,40.0595883333,N,116.17997,E,1,13,1.0,247.55,M,-9.8,M,0,
1638155885815936322,325,1638155885802979231,/GNSS,$GPGGA,11885.2,40.0595883333,N,116.17995,E,1,13,1.0,247.51,M,-9.8,M,0,
1638155886015956947,326,1638155886002991676,/GNSS,$GPGGA,11885.4,40.0595883333,N,116.179928333,E,1,13,1.0,247.52,M,-9.8,M,0,
1638155886215934402,327,1638155886202978849,/GNSS,$GPGGA,11885.6,40.0595883333,N,116.179906667,E,1,13,1.0,247.49,M,-9.8,M,0,
1638155886415929477,328,1638155886402979136,/GNSS,$GPGGA,11885.8,40.0595866667,N,116.179885,E,1,13,1.0,247.47,M,-9.8,M,0,
1638155886616014932,329,1638155886603005171,/GNSS,$GPGGA,11886.0,40.0595866667,N,116.179863333,E,1,13,1.0,247.49,M,-9.8,M,0,
1638155886815944789,330,1638155886802976847,/GNSS,$GPGGA,11886.2,40.0595866667,N,116.179841667,E,1,13,1.0,247.52,M,-9.8,M,0,
1638155887015964133,331,1638155887002997637,/GNSS,$GPGGA,11886.4,40.059585,N,116.179818333,E,1,13,1.0,247.54,M,-9.8,M,0,
1638155887216089447,332,1638155887203023911,/GNSS,$GPGGA,11886.6,40.059585,N,116.179796667,E,1,13,1.0,247.5,M,-9.8,M,0,
1638155887415973324,333,1638155887402988911,/GNSS,$GPGGA,11886.8,40.059585,N,116.179773333,E,1,14,1.0,247.48,M,-9.8,M,0,
1638155887615953529,334,1638155887602978230,/GNSS,$GPGGA,11887.0,40.0595833333,N,116.17975,E,1,14,1.0,247.51,M,-9.8,M,0,
1638155887815965325,335,1638155887802996159,/GNSS,$GPGGA,11887.2,40.0595833333,N,116.179726667,E,1,14,1.0,247.55,M,-9.8,M,0,
1638155888015905083,336,1638155888002964020,/GNSS,$GPGGA,11887.4,40.0595816667,N,116.179703333,E,1,14,1.0,247.55,M,-9.8,M,0,
1638155888216039572,337,1638155888203025579,/GNSS,$GPGGA,11887.6,40.0595816667,N,116.17968,E,1,14,1.0,247.56,M,-9.8,M,0,
1638155888415947573,338,1638155888403004885,/GNSS,$GPGGA,11887.8,40.0595816667,N,116.179655,E,1,14,1.0,247.55,M,-9.8,M,0,
1638155888615937791,339,1638155888602998972,/GNSS,$GPGGA,11888.0,40.05958,N,116.179631667,E,1,14,1.0,247.53,M,-9.8,M,0,
1638155888815942973,340,1638155888803004980,/GNSS,$GPGGA,11888.2,40.0595783333,N,116.179608333,E,1,14,1.0,247.58,M,-9.8,M,0,
1638155889016008832,341,1638155889003007889,/GNSS,$GPGGA,11888.4,40.05958,N,116.179583333,E,1,14,1.0,247.49,M,-9.8,M,0,
1638155889215903727,342,1638155889202969313,/GNSS,$GPGGA,11888.6,40.05958,N,116.17956,E,1,14,1.0,247.51,M,-9.8,M,0,
1638155889415933915,343,1638155889402997732,/GNSS,$GPGGA,11888.8,40.0595783333,N,116.179536667,E,1,13,1.0,247.5,M,-9.8,M,0,
1638155889615955749,344,1638155889603005171,/GNSS,$GPGGA,11889.0,40.0595783333,N,116.179511667,E,1,13,1.0,247.55,M,-9.8,M,0,
1638155889815969423,345,1638155889803009033,/GNSS,$GPGGA,11889.2,40.0595766667,N,116.179488333,E,1,13,1.0,247.55,M,-9.8,M,0,
1638155890015948450,346,1638155890003006935,/GNSS,$GPGGA,11889.4,40.0595766667,N,116.179465,E,1,13,1.0,247.56,M,-9.8,M,0,
1638155890215892929,347,1638155890202958584,/GNSS,$GPGGA,11889.6,40.0595766667,N,116.17944,E,1,13,1.0,247.58,M,-9.8,M,0,
1638155890416667631,348,1638155890403280497,/GNSS,$GPGGA,11889.8,40.0595766667,N,116.179416667,E,1,13,1.0,247.57,M,-9.8,M,0,
1638155890616052275,349,1638155890603016138,/GNSS,$GPGGA,11890.0,40.059575,N,116.179391667,E,1,13,1.0,247.6,M,-9.8,M,0,
1638155890816037164,350,1638155890802996397,/GNSS,$GPGGA,11890.2,40.059575,N,116.179368333,E,1,13,1.0,247.6,M,-9.8,M,0,
1638155891016069233,351,1638155891003023863,/GNSS,$GPGGA,11890.4,40.059575,N,116.179345,E,1,13,1.0,247.66,M,-9.8,M,0,
1638155891215990526,352,1638155891202985525,/GNSS,$GPGGA,11890.6,40.059575,N,116.179321667,E,1,13,1.0,247.67,M,-9.8,M,0,
1638155891416001525,353,1638155891402978182,/GNSS,$GPGGA,11890.8,40.0595733333,N,116.179296667,E,1,13,1.0,247.64,M,-9.8,M,0,
1638155891615932255,354,1638155891602977991,/GNSS,$GPGGA,11891.0,40.0595733333,N,116.179273333,E,1,13,1.0,247.58,M,-9.8,M,0,
1638155891815934120,355,1638155891802998543,/GNSS,$GPGGA,11891.2,40.0595733333,N,116.17925,E,1,13,1.0,247.59,M,-9.8,M,0,
1638155892015982479,356,1638155892003007650,/GNSS,$GPGGA,11891.4,40.0595733333,N,116.179225,E,1,13,1.0,247.63,M,-9.8,M,0,
1638155892215967737,357,1638155892203011036,/GNSS,$GPGGA,11891.6,40.0595733333,N,116.179201667,E,1,13,1.0,247.61,M,-9.8,M,0,
1638155892415929176,358,1638155892402969360,/GNSS,$GPGGA,11891.8,40.0595716667,N,116.179178333,E,1,13,1.0,247.63,M,-9.8,M,0,
1638155892615963121,359,1638155892603015661,/GNSS,$GPGGA,11892.0,40.0595716667,N,116.179155,E,1,13,1.0,247.68,M,-9.8,M,0,
1638155892815941951,360,1638155892802986860,/GNSS,$GPGGA,11892.2,40.0595716667,N,116.17913,E,1,13,1.0,247.7,M,-9.8,M,0,
1638155893017517832,361,1638155893004466057,/GNSS,$GPGGA,11892.4,40.05957,N,116.179106667,E,1,13,1.0,247.7,M,-9.8,M,0,
1638155893215936494,362,1638155893202985287,/GNSS,$GPGGA,11892.6,40.05957,N,116.179083333,E,1,13,1.0,247.69,M,-9.8,M,0,
1638155893415932713,363,1638155893402986288,/GNSS,$GPGGA,11892.8,40.05957,N,116.17906,E,1,13,1.0,247.66,M,-9.8,M,0,
1638155893615983901,364,1638155893602993965,/GNSS,$GPGGA,11893.0,40.05957,N,116.179035,E,1,13,1.0,247.69,M,-9.8,M,0,
1638155893815965133,365,1638155893802990437,/GNSS,$GPGGA,11893.2,40.0595683333,N,116.179011667,E,1,13,1.0,247.7,M,-9.8,M,0,
1638155894015929110,366,1638155894002989531,/GNSS,$GPGGA,11893.4,40.0595683333,N,116.178988333,E,1,13,1.0,247.64,M,-9.8,M,0,
1638155894216012671,367,1638155894203007221,/GNSS,$GPGGA,11893.6,40.0595683333,N,116.178965,E,1,13,1.0,247.65,M,-9.8,M,0,
1638155894415942159,368,1638155894402992964,/GNSS,$GPGGA,11893.8,40.0595666667,N,116.178941667,E,1,13,1.0,247.65,M,-9.8,M,0,
1638155894615966508,369,1638155894602992773,/GNSS,$GPGGA,11894.0,40.0595666667,N,116.178916667,E,1,13,1.0,247.64,M,-9.8,M,0,
1638155894816144291,370,1638155894803038359,/GNSS,$GPGGA,11894.2,40.059565,N,116.178895,E,1,13,1.0,247.57,M,-9.8,M,0,
1638155895015932132,371,1638155895002997637,/GNSS,$GPGGA,11894.4,40.059565,N,116.17887,E,1,13,1.0,247.6,M,-9.8,M,0,
1638155895216019836,372,1638155895203025103,/GNSS,$GPGGA,11894.6,40.0595633333,N,116.178846667,E,1,14,1.0,247.6,M,-9.8,M,0,
1638155895415933318,373,1638155895402997971,/GNSS,$GPGGA,11894.8,40.0595633333,N,116.178823333,E,1,14,1.0,247.62,M,-9.8,M,0,
1638155895615973172,374,1638155895603029966,/GNSS,$GPGGA,11895.0,40.0595633333,N,116.1788,E,1,14,1.0,247.63,M,-9.8,M,0,
1638155895815964967,375,1638155895802967072,/GNSS,$GPGGA,11895.2,40.0595633333,N,116.178775,E,1,14,1.0,247.6,M,-9.8,M,0,
1638155896015943027,376,1638155896002962828,/GNSS,$GPGGA,11895.4,40.0595616667,N,116.178751667,E,1,14,1.0,247.58,M,-9.8,M,0,
1638155896216001422,377,1638155896202975988,/GNSS,$GPGGA,11895.6,40.0595616667,N,116.178728333,E,1,14,1.0,247.59,M,-9.8,M,0,
1638155896415942317,378,1638155896402973890,/GNSS,$GPGGA,11895.8,40.0595616667,N,116.178705,E,1,13,1.0,247.61,M,-9.8,M,0,
1638155896615972771,379,1638155896602964640,/GNSS,$GPGGA,11896.0,40.0595616667,N,116.178681667,E,1,13,1.0,247.6,M,-9.8,M,0,
1638155896815937631,380,1638155896803002357,/GNSS,$GPGGA,11896.2,40.05956,N,116.178658333,E,1,13,1.0,247.63,M,-9.8,M,0,
1638155897016025130,381,1638155897003048658,/GNSS,$GPGGA,11896.4,40.05956,N,116.178635,E,1,13,1.0,247.62,M,-9.8,M,0,
1638155897215988517,382,1638155897203006506,/GNSS,$GPGGA,11896.6,40.05956,N,116.178611667,E,1,13,1.0,247.59,M,-9.8,M,0,
1638155897415937879,383,1638155897403002739,/GNSS,$GPGGA,11896.8,40.05956,N,116.178586667,E,1,13,1.0,247.57,M,-9.8,M,0,
1638155897616055344,384,1638155897603031158,/GNSS,$GPGGA,11897.0,40.0595583333,N,116.178563333,E,1,13,1.0,247.56,M,-9.8,M,0,
1638155897815937382,385,1638155897802971840,/GNSS,$GPGGA,11897.2,40.0595583333,N,116.17854,E,1,13,1.0,247.58,M,-9.8,M,0,
1638155898016352770,386,1638155898003335238,/GNSS,$GPGGA,11897.4,40.0595583333,N,116.178516667,E,1,13,1.0,247.61,M,-9.8,M,0,
1638155898215935801,387,1638155898202971458,/GNSS,$GPGGA,11897.6,40.0595583333,N,116.178493333,E,1,13,1.0,247.63,M,-9.8,M,0,
1638155898416080969,388,1638155898403008461,/GNSS,$GPGGA,11897.8,40.0595566667,N,116.17847,E,1,13,1.0,247.62,M,-9.8,M,0,
1638155898615942129,389,1638155898602975368,/GNSS,$GPGGA,11898.0,40.0595566667,N,116.178446667,E,1,13,1.0,247.6,M,-9.8,M,0,
1638155898815968776,390,1638155898803000212,/GNSS,$GPGGA,11898.2,40.0595566667,N,116.178423333,E,1,13,1.0,247.61,M,-9.8,M,0,
1638155899015891551,391,1638155899002954245,/GNSS,$GPGGA,11898.4,40.0595566667,N,116.178398333,E,1,13,1.0,247.62,M,-9.8,M,0,
1638155899215933265,392,1638155899202996492,/GNSS,$GPGGA,11898.6,40.059555,N,116.178375,E,1,13,1.0,247.64,M,-9.8,M,0,
1638155899415962275,393,1638155899402992725,/GNSS,$GPGGA,11898.8,40.059555,N,116.178351667,E,1,13,1.0,247.65,M,-9.8,M,0,
1638155899615971185,394,1638155899603000641,/GNSS,$GPGGA,11899.0,40.059555,N,116.178328333,E,1,13,1.0,247.65,M,-9.8,M,0,
1638155899815932134,395,1638155899802993536,/GNSS,$GPGGA,11899.2,40.059555,N,116.178303333,E,1,13,1.0,247.63,M,-9.8,M,0,
1638155900015990747,396,1638155900003013611,/GNSS,$GPGGA,11899.4,40.059555,N,116.17828,E,1,13,1.0,247.64,M,-9.8,M,0,
1638155900215942212,397,1638155900202994823,/GNSS,$GPGGA,11899.6,40.0595533333,N,116.178256667,E,1,13,1.0,247.65,M,-9.8,M,0,
1638155900415943456,398,1638155900402995348,/GNSS,$GPGGA,11899.8,40.0595533333,N,116.178233333,E,1,13,1.0,247.65,M,-9.8,M,0,
1638155900616055166,399,1638155900603031635,/GNSS,$GPGGA,11900.0,40.0595533333,N,116.178208333,E,1,13,1.0,247.63,M,-9.8,M,0,
1638155900815942389,400,1638155900802967310,/GNSS,$GPGGA,11900.2,40.0595516667,N,116.178185,E,1,13,1.0,247.63,M,-9.8,M,0,
1638155901016319903,401,1638155901003080130,/GNSS,$GPGGA,11900.4,40.0595516667,N,116.178161667,E,1,13,1.0,247.66,M,-9.8,M,0,
1638155901215934502,402,1638155901202964544,/GNSS,$GPGGA,11900.6,40.0595516667,N,116.178138333,E,1,13,1.0,247.7,M,-9.8,M,0,
1638155901415938591,403,1638155901402963638,/GNSS,$GPGGA,11900.8,40.0595516667,N,116.178115,E,1,13,1.0,247.74,M,-9.8,M,0,
1638155901615934011,404,1638155901602960348,/GNSS,$GPGGA,11901.0,40.0595516667,N,116.17809,E,1,13,1.0,247.71,M,-9.8,M,0,
1638155901815916813,405,1638155901802983284,/GNSS,$GPGGA,11901.2,40.05955,N,116.178066667,E,1,13,1.0,247.7,M,-9.8,M,0,
1638155902015984238,406,1638155902003025770,/GNSS,$GPGGA,11901.4,40.05955,N,116.178043333,E,1,13,1.0,247.69,M,-9.8,M,0,
1638155902215944665,407,1638155902203010082,/GNSS,$GPGGA,11901.6,40.05955,N,116.17802,E,1,13,1.0,247.73,M,-9.8,M,0,
1638155902416005514,408,1638155902403009653,/GNSS,$GPGGA,11901.8,40.0595483333,N,116.177996667,E,1,13,1.0,247.67,M,-9.8,M,0,
1638155902616007487,409,1638155902603012562,/GNSS,$GPGGA,11902.0,40.0595483333,N,116.177973333,E,1,13,1.0,247.67,M,-9.8,M,0,
1638155902815939045,410,1638155902802993774,/GNSS,$GPGGA,11902.2,40.0595483333,N,116.17795,E,1,13,1.0,247.69,M,-9.8,M,0,
1638155903015937659,411,1638155903002988100,/GNSS,$GPGGA,11902.4,40.0595466667,N,116.177926667,E,1,13,1.0,247.69,M,-9.8,M,0,
1638155903215954575,412,1638155903202996731,/GNSS,$GPGGA,11902.6,40.0595466667,N,116.177901667,E,1,13,1.0,247.68,M,-9.8,M,0,
1638155903415964657,413,1638155903402992964,/GNSS,$GPGGA,11902.8,40.0595466667,N,116.177878333,E,1,13,1.0,247.71,M,-9.8,M,0,
1638155903616004217,414,1638155903603022814,/GNSS,$GPGGA,11903.0,40.059545,N,116.177855,E,1,13,1.0,247.65,M,-9.8,M,0,
1638155903816534826,415,1638155903803489208,/GNSS,$GPGGA,11903.2,40.059545,N,116.177831667,E,1,13,1.0,247.65,M,-9.8,M,0,
1638155904015936816,416,1638155904002966881,/GNSS,$GPGGA,11903.4,40.059545,N,116.177806667,E,1,13,1.0,247.65,M,-9.8,M,0,
1638155904215940582,417,1638155904202970028,/GNSS,$GPGGA,11903.6,40.0595433333,N,116.177783333,E,1,13,1.0,247.68,M,-9.8,M,0,
1638155904415943858,418,1638155904402965784,/GNSS,$GPGGA,11903.8,40.0595433333,N,116.17776,E,1,13,1.0,247.67,M,-9.8,M,0,
1638155904615926751,419,1638155904602962494,/GNSS,$GPGGA,11904.0,40.0595433333,N,116.177735,E,1,13,1.0,247.71,M,-9.8,M,0,
1638155904815930676,420,1638155904803004742,/GNSS,$GPGGA,11904.2,40.0595433333,N,116.177711667,E,1,13,1.0,247.74,M,-9.8,M,0,
1638155905016138304,421,1638155905003046036,/GNSS,$GPGGA,11904.4,40.0595416667,N,116.177688333,E,1,13,1.0,247.72,M,-9.8,M,0,
1638155905215938684,422,1638155905203006029,/GNSS,$GPGGA,11904.6,40.0595416667,N,116.177663333,E,1,13,1.0,247.78,M,-9.8,M,0,
1638155905415962434,423,1638155905403005362,/GNSS,$GPGGA,11904.8,40.0595416667,N,116.17764,E,1,13,1.0,247.8,M,-9.8,M,0,
1638155905615939869,424,1638155905603013992,/GNSS,$GPGGA,11905.0,40.0595416667,N,116.177616667,E,1,13,1.0,247.82,M,-9.8,M,0,
1638155905815935527,425,1638155905802988291,/GNSS,$GPGGA,11905.2,40.05954,N,116.177593333,E,1,13,1.0,247.86,M,-9.8,M,0,
1638155906015916324,426,1638155906002968788,/GNSS,$GPGGA,11905.4,40.05954,N,116.17757,E,1,13,1.0,247.82,M,-9.8,M,0,
1638155906215975705,427,1638155906203001499,/GNSS,$GPGGA,11905.6,40.05954,N,116.177546667,E,1,13,1.0,247.84,M,-9.8,M,0,
1638155906417867658,428,1638155906403729439,/GNSS,$GPGGA,11905.8,40.0595383333,N,116.177521667,E,1,13,1.0,247.84,M,-9.8,M,0,
1638155906615944643,429,1638155906602960110,/GNSS,$GPGGA,11906.0,40.0595383333,N,116.177498333,E,1,13,1.0,247.8,M,-9.8,M,0,
1638155906815945042,430,1638155906803030729,/GNSS,$GPGGA,11906.2,40.0595366667,N,116.177475,E,1,13,1.0,247.77,M,-9.8,M,0,
1638155907015946942,431,1638155907003036976,/GNSS,$GPGGA,11906.4,40.0595366667,N,116.177451667,E,1,13,1.0,247.75,M,-9.8,M,0,
1638155907215919970,432,1638155907203022957,/GNSS,$GPGGA,11906.6,40.0595366667,N,116.177428333,E,1,13,1.0,247.73,M,-9.8,M,0,
1638155907415954622,433,1638155907403032303,/GNSS,$GPGGA,11906.8,40.0595366667,N,116.177405,E,1,13,1.0,247.68,M,-9.8,M,0,
1638155907616017945,434,1638155907603050470,/GNSS,$GPGGA,11907.0,40.059535,N,116.177381667,E,1,14,1.0,247.67,M,-9.8,M,0,
1638155907815932969,435,1638155907802980423,/GNSS,$GPGGA,11907.2,40.059535,N,116.177358333,E,1,14,1.0,247.67,M,-9.8,M,0,
1638155908015930888,436,1638155908002979279,/GNSS,$GPGGA,11907.4,40.059535,N,116.177335,E,1,14,1.0,247.69,M,-9.8,M,0,
1638155908216974910,437,1638155908203844786,/GNSS,$GPGGA,11907.6,40.059535,N,116.177311667,E,1,14,1.0,247.69,M,-9.8,M,0,
1638155908416017301,438,1638155908403002262,/GNSS,$GPGGA,11907.8,40.0595333333,N,116.177288333,E,1,13,1.0,247.7,M,-9.8,M,0,
1638155908615970099,439,1638155908602987051,/GNSS,$GPGGA,11908.0,40.0595333333,N,116.177265,E,1,14,1.0,247.69,M,-9.8,M,0,
1638155908815965871,440,1638155908802989960,/GNSS,$GPGGA,11908.2,40.0595333333,N,116.17724,E,1,14,1.0,247.69,M,-9.8,M,0,
1638155909015948984,441,1638155909003004313,/GNSS,$GPGGA,11908.4,40.0595316667,N,116.177216667,E,1,14,1.0,247.69,M,-9.8,M,0,
1638155909215985335,442,1638155909203016281,/GNSS,$GPGGA,11908.6,40.05953,N,116.177193333,E,1,14,1.0,247.75,M,-9.8,M,0,
1638155909415923628,443,1638155909402981997,/GNSS,$GPGGA,11908.8,40.0595283333,N,116.17717,E,1,14,1.0,247.83,M,-9.8,M,0,
1638155909615984943,444,1638155909602997541,/GNSS,$GPGGA,11909.0,40.05953,N,116.177146667,E,1,14,1.0,247.75,M,-9.8,M,0,
1638155909815934438,445,1638155909802994251,/GNSS,$GPGGA,11909.2,40.05953,N,116.177123333,E,1,14,1.0,247.68,M,-9.8,M,0,
1638155910015944988,446,1638155910002998590,/GNSS,$GPGGA,11909.4,40.05953,N,116.1771,E,1,14,1.0,247.64,M,-9.8,M,0,
1638155910215907447,447,1638155910202973366,/GNSS,$GPGGA,11909.6,40.0595283333,N,116.177075,E,1,14,1.0,247.67,M,-9.8,M,0,
1638155910415932416,448,1638155910402993441,/GNSS,$GPGGA,11909.8,40.0595266667,N,116.177051667,E,1,14,1.0,247.71,M,-9.8,M,0,
1638155910616050806,449,1638155910603021860,/GNSS,$GPGGA,11910.0,40.0595266667,N,116.177028333,E,1,14,1.0,247.69,M,-9.8,M,0,
1638155910815975964,450,1638155910803005695,/GNSS,$GPGGA,11910.2,40.0595266667,N,116.177005,E,1,14,1.0,247.65,M,-9.8,M,0,
1638155911015935140,451,1638155911002972841,/GNSS,$GPGGA,11910.4,40.0595266667,N,116.176981667,E,1,14,1.0,247.62,M,-9.8,M,0,
1638155911215975906,452,1638155911202988148,/GNSS,$GPGGA,11910.6,40.0595266667,N,116.176956667,E,1,14,1.0,247.62,M,-9.8,M,0,
1638155911415950563,453,1638155911402978420,/GNSS,$GPGGA,11910.8,40.059525,N,116.176933333,E,1,14,1.0,247.64,M,-9.8,M,0,
1638155911615940384,454,1638155911602972746,/GNSS,$GPGGA,11911.0,40.059525,N,116.17691,E,1,14,1.0,247.7,M,-9.8,M,0,
1638155911815940028,455,1638155911803001404,/GNSS,$GPGGA,11911.2,40.059525,N,116.176886667,E,1,13,1.0,247.65,M,-9.8,M,0,
1638155912015886709,456,1638155912002957106,/GNSS,$GPGGA,11911.4,40.059525,N,116.176861667,E,1,13,1.0,247.66,M,-9.8,M,0,
1638155912216037922,457,1638155912203047037,/GNSS,$GPGGA,11911.6,40.059525,N,116.176838333,E,1,13,1.0,247.65,M,-9.8,M,0,
1638155912415948022,458,1638155912403002739,/GNSS,$GPGGA,11911.8,40.059525,N,116.176815,E,1,13,1.0,247.66,M,-9.8,M,0,
1638155912615938334,459,1638155912602997780,/GNSS,$GPGGA,11912.0,40.0595233333,N,116.176791667,E,1,13,1.0,247.62,M,-9.8,M,0,
1638155912815936467,460,1638155912802999973,/GNSS,$GPGGA,11912.2,40.0595233333,N,116.176768333,E,1,13,1.0,247.57,M,-9.8,M,0,
1638155913016000977,461,1638155913003023386,/GNSS,$GPGGA,11912.4,40.0595233333,N,116.176745,E,1,13,1.0,247.56,M,-9.8,M,0,
1638155913215939631,462,1638155913203001738,/GNSS,$GPGGA,11912.6,40.0595216667,N,116.176721667,E,1,13,1.0,247.55,M,-9.8,M,0,
1638155913415889427,463,1638155913402959585,/GNSS,$GPGGA,11912.8,40.0595216667,N,116.176698333,E,1,13,1.0,247.57,M,-9.8,M,0,
1638155913615927236,464,1638155913603000402,/GNSS,$GPGGA,11913.0,40.0595216667,N,116.176675,E,1,13,1.0,247.57,M,-9.8,M,0,
1638155913815942121,465,1638155913803006649,/GNSS,$GPGGA,11913.2,40.0595216667,N,116.17665,E,1,13,1.0,247.66,M,-9.8,M,0,
1638155914016056496,466,1638155914003048897,/GNSS,$GPGGA,11913.4,40.05952,N,116.176626667,E,1,13,1.0,247.67,M,-9.8,M,0,
1638155914215936988,467,1638155914203005314,/GNSS,$GPGGA,11913.6,40.05952,N,116.176603333,E,1,13,1.0,247.64,M,-9.8,M,0,
1638155914415939926,468,1638155914403007507,/GNSS,$GPGGA,11913.8,40.05952,N,116.17658,E,1,13,1.0,247.58,M,-9.8,M,0,
1638155914615934874,469,1638155914602998734,/GNSS,$GPGGA,11914.0,40.0595183333,N,116.176556667,E,1,13,1.0,247.62,M,-9.8,M,0,
1638155914815934168,470,1638155914803000927,/GNSS,$GPGGA,11914.2,40.0595183333,N,116.176533333,E,1,14,1.0,247.63,M,-9.8,M,0,
1638155915015929710,471,1638155915003000975,/GNSS,$GPGGA,11914.4,40.0595183333,N,116.17651,E,1,14,1.0,247.62,M,-9.8,M,0,
1638155915215914541,472,1638155915202977180,/GNSS,$GPGGA,11914.6,40.0595166667,N,116.176485,E,1,14,1.0,247.61,M,-9.8,M,0,
1638155915415936710,473,1638155915403003216,/GNSS,$GPGGA,11914.8,40.0595166667,N,116.176461667,E,1,13,1.0,247.58,M,-9.8,M,0,
1638155915615898733,474,1638155915602966309,/GNSS,$GPGGA,11915.0,40.0595166667,N,116.176438333,E,1,14,1.0,247.58,M,-9.8,M,0,
1638155915815927220,475,1638155915803026199,/GNSS,$GPGGA,11915.2,40.0595166667,N,116.176415,E,1,13,1.0,247.57,M,-9.8,M,0,
1638155916015940169,476,1638155916003037930,/GNSS,$GPGGA,11915.4,40.059515,N,116.176391667,E,1,14,1.0,247.58,M,-9.8,M,0,
1638155916216014860,477,1638155916203074455,/GNSS,$GPGGA,11915.6,40.059515,N,116.176368333,E,1,14,1.0,247.58,M,-9.8,M,0,
1638155916416031484,478,1638155916403077841,/GNSS,$GPGGA,11915.8,40.059515,N,116.176345,E,1,14,1.0,247.56,M,-9.8,M,0,
1638155916615931792,479,1638155916603034019,/GNSS,$GPGGA,11916.0,40.059515,N,116.176321667,E,1,14,1.0,247.52,M,-9.8,M,0,
1638155916815956940,480,1638155916803006649,/GNSS,$GPGGA,11916.2,40.059515,N,116.176298333,E,1,14,1.0,247.6,M,-9.8,M,0,
1638155917015965083,481,1638155917003004074,/GNSS,$GPGGA,11916.4,40.0595116667,N,116.176276667,E,1,14,1.0,247.66,M,-9.8,M,0,
1638155917215949240,482,1638155917203001976,/GNSS,$GPGGA,11916.6,40.0595116667,N,116.176253333,E,1,14,1.0,247.72,M,-9.8,M,0,
1638155917415967472,483,1638155917403000832,/GNSS,$GPGGA,11916.8,40.0595116667,N,116.176231667,E,1,13,1.0,247.67,M,-9.8,M,0,
1638155917615930596,484,1638155917602977037,/GNSS,$GPGGA,11917.0,40.05951,N,116.17621,E,1,14,1.0,247.75,M,-9.8,M,0,
1638155917815940818,485,1638155917803024769,/GNSS,$GPGGA,11917.2,40.05951,N,116.176188333,E,1,14,1.0,247.74,M,-9.8,M,0,
1638155918015919338,486,1638155918002999783,/GNSS,$GPGGA,11917.4,40.0595116667,N,116.176166667,E,1,14,1.0,247.67,M,-9.8,M,0,
1638155918215948922,487,1638155918203027487,/GNSS,$GPGGA,11917.6,40.0595083333,N,116.176146667,E,1,14,1.0,247.75,M,-9.8,M,0,
1638155918415942415,488,1638155918403028250,/GNSS,$GPGGA,11917.8,40.05951,N,116.176125,E,1,14,1.0,247.67,M,-9.8,M,0,
1638155918615965530,489,1638155918603024006,/GNSS,$GPGGA,11918.0,40.05951,N,116.176105,E,1,14,1.0,247.67,M,-9.8,M,0,
1638155918815957269,490,1638155918803001642,/GNSS,$GPGGA,11918.2,40.0595083333,N,116.176085,E,1,14,1.0,247.72,M,-9.8,M,0,
1638155919015898672,491,1638155919002968073,/GNSS,$GPGGA,11918.4,40.0595083333,N,116.176066667,E,1,14,1.0,247.72,M,-9.8,M,0,
1638155919215962619,492,1638155919203016043,/GNSS,$GPGGA,11918.6,40.0595083333,N,116.176046667,E,1,14,1.0,247.65,M,-9.8,M,0,
1638155919415993148,493,1638155919403017282,/GNSS,$GPGGA,11918.8,40.0595083333,N,116.176028333,E,1,13,1.0,247.63,M,-9.8,M,0,
1638155919615933042,494,1638155919603003263,/GNSS,$GPGGA,11919.0,40.0595066667,N,116.17601,E,1,14,1.0,247.67,M,-9.8,M,0,
1638155919815950003,495,1638155919803015471,/GNSS,$GPGGA,11919.2,40.0595066667,N,116.175991667,E,1,14,1.0,247.66,M,-9.8,M,0,
1638155920015927133,496,1638155920002997160,/GNSS,$GPGGA,11919.4,40.0595066667,N,116.175975,E,1,14,1.0,247.67,M,-9.8,M,0,
1638155920215932085,497,1638155920202997446,/GNSS,$GPGGA,11919.6,40.0595066667,N,116.175958333,E,1,14,1.0,247.62,M,-9.8,M,0,
1638155920415936726,498,1638155920402999640,/GNSS,$GPGGA,11919.8,40.059505,N,116.175941667,E,1,14,1.0,247.66,M,-9.8,M,0,
1638155920616017686,499,1638155920603039026,/GNSS,$GPGGA,11920.0,40.059505,N,116.175925,E,1,14,1.0,247.67,M,-9.8,M,0,
1638155920815924328,500,1638155920802938938,/GNSS,$GPGGA,11920.2,40.059505,N,116.17591,E,1,14,1.0,247.63,M,-9.8,M,0,
1638155921015940099,501,1638155921002953768,/GNSS,$GPGGA,11920.4,40.059505,N,116.175893333,E,1,14,1.0,247.57,M,-9.8,M,0,
1638155921215957413,502,1638155921202960491,/GNSS,$GPGGA,11920.6,40.059505,N,116.175878333,E,1,14,1.0,247.53,M,-9.8,M,0,
1638155921415937242,503,1638155921402962923,/GNSS,$GPGGA,11920.8,40.0595033333,N,116.175865,E,1,13,1.0,247.58,M,-9.8,M,0,
1638155921615966229,504,1638155921602994919,/GNSS,$GPGGA,11921.0,40.0595033333,N,116.17585,E,1,14,1.0,247.57,M,-9.8,M,0,
1638155921815986893,505,1638155921802949905,/GNSS,$GPGGA,11921.2,40.0595016667,N,116.175836667,E,1,14,1.0,247.64,M,-9.8,M,0,
1638155922015939825,506,1638155922002953768,/GNSS,$GPGGA,11921.4,40.0595016667,N,116.175823333,E,1,14,1.0,247.66,M,-9.8,M,0,
1638155922215906704,507,1638155922202918291,/GNSS,$GPGGA,11921.6,40.0595016667,N,116.175811667,E,1,14,1.0,247.68,M,-9.8,M,0,
1638155922415927975,508,1638155922402962446,/GNSS,$GPGGA,11921.8,40.0595016667,N,116.175798333,E,1,14,1.0,247.7,M,-9.8,M,0,
1638155922615997550,509,1638155922603000164,/GNSS,$GPGGA,11922.0,40.0595016667,N,116.175786667,E,1,14,1.0,247.64,M,-9.8,M,0,
1638155922815932511,510,1638155922802964211,/GNSS,$GPGGA,11922.2,40.0595,N,116.175776667,E,1,14,1.0,247.7,M,-9.8,M,0,
1638155923015928949,511,1638155923002962351,/GNSS,$GPGGA,11922.4,40.0595,N,116.175765,E,1,14,1.0,247.74,M,-9.8,M,0,
1638155923215929946,512,1638155923202962160,/GNSS,$GPGGA,11922.6,40.0594983333,N,116.175755,E,1,14,1.0,247.76,M,-9.8,M,0,
1638155923415934008,513,1638155923402965069,/GNSS,$GPGGA,11922.8,40.0594983333,N,116.175745,E,1,14,1.0,247.74,M,-9.8,M,0,
1638155923615960925,514,1638155923602977753,/GNSS,$GPGGA,11923.0,40.0595,N,116.175735,E,1,13,1.0,247.62,M,-9.8,M,0,
1638155923816012644,515,1638155923803009510,/GNSS,$GPGGA,11923.2,40.0594983333,N,116.175726667,E,1,14,1.0,247.74,M,-9.8,M,0,
1638155924015932419,516,1638155924002988100,/GNSS,$GPGGA,11923.4,40.0594966667,N,116.175718333,E,1,14,1.0,247.81,M,-9.8,M,0,
1638155924215895558,517,1638155924202943087,/GNSS,$GPGGA,11923.6,40.0594966667,N,116.17571,E,1,14,1.0,247.79,M,-9.8,M,0,
1638155924415971293,518,1638155924403008223,/GNSS,$GPGGA,11923.8,40.059495,N,116.175703333,E,1,14,1.0,247.79,M,-9.8,M,0,
1638155924615933234,519,1638155924602985859,/GNSS,$GPGGA,11924.0,40.0594966667,N,116.175696667,E,1,14,1.0,247.72,M,-9.8,M,0,
1638155924816020551,520,1638155924803028584,/GNSS,$GPGGA,11924.2,40.0594966667,N,116.17569,E,1,14,1.0,247.7,M,-9.8,M,0,
1638155925015927750,521,1638155925002998114,/GNSS,$GPGGA,11924.4,40.0594966667,N,116.175683333,E,1,14,1.0,247.67,M,-9.8,M,0,
1638155925216044527,522,1638155925203056335,/GNSS,$GPGGA,11924.6,40.0594966667,N,116.175678333,E,1,14,1.0,247.67,M,-9.8,M,0,
1638155925415931256,523,1638155925403000832,/GNSS,$GPGGA,11924.8,40.059495,N,116.175673333,E,1,14,1.0,247.66,M,-9.8,M,0,
1638155925615983065,524,1638155925603016853,/GNSS,$GPGGA,11925.0,40.059495,N,116.175668333,E,1,14,1.0,247.68,M,-9.8,M,0,
1638155925815931996,525,1638155925802982569,/GNSS,$GPGGA,11925.2,40.059495,N,116.175665,E,1,14,1.0,247.72,M,-9.8,M,0,
1638155926015934348,526,1638155926002983332,/GNSS,$GPGGA,11925.4,40.0594933333,N,116.17566,E,1,14,1.0,247.72,M,-9.8,M,0,
1638155926215952500,527,1638155926202986002,/GNSS,$GPGGA,11925.6,40.0594933333,N,116.175656667,E,1,14,1.0,247.68,M,-9.8,M,0,
1638155926415950527,528,1638155926402984619,/GNSS,$GPGGA,11925.8,40.0594966667,N,116.175651667,E,1,13,1.0,247.5,M,-9.8,M,0,
1638155926615938520,529,1638155926602984428,/GNSS,$GPGGA,11926.0,40.059495,N,116.175648333,E,1,14,1.0,247.65,M,-9.8,M,0,
1638155926815969325,530,1638155926803015232,/GNSS,$GPGGA,11926.2,40.0594966667,N,116.175643333,E,1,13,1.0,247.55,M,-9.8,M,0,
1638155927015943760,531,1638155927003003359,/GNSS,$GPGGA,11926.4,40.0594966667,N,116.17564,E,1,13,1.0,247.56,M,-9.8,M,0,
1638155927215938316,532,1638155927202996731,/GNSS,$GPGGA,11926.6,40.0594966667,N,116.175636667,E,1,13,1.0,247.57,M,-9.8,M,0,
1638155927415929912,533,1638155927402998924,/GNSS,$GPGGA,11926.8,40.0594983333,N,116.175633333,E,1,13,1.0,247.6,M,-9.8,M,0,
1638155927615929475,534,1638155927602995634,/GNSS,$GPGGA,11927.0,40.0594983333,N,116.17563,E,1,13,1.0,247.59,M,-9.8,M,0,
1638155927815972522,535,1638155927803015709,/GNSS,$GPGGA,11927.2,40.0594983333,N,116.175626667,E,1,13,1.0,247.56,M,-9.8,M,0,
1638155928015929910,536,1638155928003003836,/GNSS,$GPGGA,11927.4,40.0594983333,N,116.175625,E,1,13,1.0,247.55,M,-9.8,M,0,
1638155928215934940,537,1638155928203007460,/GNSS,$GPGGA,11927.6,40.0594983333,N,116.175621667,E,1,14,1.0,247.56,M,-9.8,M,0,
1638155928415928808,538,1638155928403003693,/GNSS,$GPGGA,11927.8,40.0594983333,N,116.17562,E,1,14,1.0,247.56,M,-9.8,M,0,
1638155928615943570,539,1638155928603008747,/GNSS,$GPGGA,11928.0,40.0594983333,N,116.175618333,E,1,14,1.0,247.52,M,-9.8,M,0,
1638155928815934278,540,1638155928802994251,/GNSS,$GPGGA,11928.2,40.0594983333,N,116.175616667,E,1,14,1.0,247.52,M,-9.8,M,0,
1638155929015904011,541,1638155929002967358,/GNSS,$GPGGA,11928.4,40.0594983333,N,116.175615,E,1,13,1.0,247.5,M,-9.8,M,0,
1638155929215932589,542,1638155929202994823,/GNSS,$GPGGA,11928.6,40.0594983333,N,116.175613333,E,1,13,1.0,247.51,M,-9.8,M,0,
1638155929415929086,543,1638155929402992725,/GNSS,$GPGGA,11928.8,40.0594983333,N,116.175613333,E,1,13,1.0,247.49,M,-9.8,M,0,
1638155929615950572,544,1638155929602994680,/GNSS,$GPGGA,11929.0,40.0594983333,N,116.175613333,E,1,13,1.0,247.52,M,-9.8,M,0,
1638155929816011923,545,1638155929803042650,/GNSS,$GPGGA,11929.2,40.0594983333,N,116.175611667,E,1,13,1.0,247.51,M,-9.8,M,0,
1638155930015965302,546,1638155930002997398,/GNSS,$GPGGA,11929.4,40.0594983333,N,116.175611667,E,1,13,1.0,247.54,M,-9.8,M,0,
1638155930216015383,547,1638155930203031063,/GNSS,$GPGGA,11929.6,40.0594983333,N,116.175611667,E,1,13,1.0,247.52,M,-9.8,M,0,
